{
  "metadata": {
    "dataset": "Illinois Antiquity & Places of the Past (sites list)",
    "year": 2014,
    "generated_at": "2026-01-27T05:01:16Z",
    "notes": "Structured from guidebook pages; fields may include seasonal hours and may change."
  },
  "regions": [
    {
      "region": "Northwest Illinois",
      "sites": [
        {
          "number": 1,
          "name": "Gramercy Park Dunleith Mound Group",
          "address": "",
          "city": "East Dubuque",
          "state": "IL",
          "zip": "",
          "phone": "",
          "hours": "",
          "websites": [
            "cityofeastdubuque.com/communityinformation.html"
          ],
          "description": "The park, situated on a high bluff overlooking the Mississippi River valley, includes 20 mounds still standing of an original group of 26 Middle Woodland conical mounds.",
          "notes": ""
        },
        {
          "number": 2,
          "name": "Galena & U.S. Grant Museum",
          "address": "",
          "city": "",
          "state": "",
          "zip": "",
          "phone": "",
          "hours": "",
          "websites": [],
          "description": "",
          "notes": ""
        },
        {
          "number": 3,
          "name": "Apple River Fort State Historic Site",
          "address": "",
          "city": "",
          "state": "",
          "zip": "",
          "phone": "",
          "hours": "",
          "websites": [],
          "description": "",
          "notes": ""
        },
        {
          "number": 4,
          "name": "Wapello Land & Water",
          "address": "211 S. Bench St., Galena, IL 61036 Reserve",
          "city": "Hanover",
          "state": "IL",
          "zip": "61036",
          "phone": "815.777.9129",
          "hours": "Daily 9AM-4:30PM 8642 Ill. Rte. 84 South, Hanover, IL",
          "websites": [
            "jdcf.org",
            "galenahistorymuseum.org"
          ],
          "description": "815.777.9129 jdcf.org galenahistorymuseum.org Owned by the Jo Daviess Conservation Regional museum includes a small Native Foundation, the reserve includes the John American display with artifacts from the Chapman site, a significant village and Galena area. mound site with contemporaneous Woodland and Mississippian artifacts.",
          "notes": ""
        },
        {
          "number": 5,
          "name": "Macktown Living History",
          "address": "311 E. Myrtle St., Elizabeth, IL 61028 Education Center",
          "city": "Rockton",
          "state": "IL",
          "zip": "61072",
          "phone": "815.624.4200",
          "hours": "",
          "websites": [
            "macktownlivinghistory.com"
          ],
          "description": "5PM 815.624.4200 815.858.2028 macktownlivinghistory.com appleriverfort. The Education Center highlights archaeolorg ogy investigating the 1838 to 1850 settleAn interpre- ment, as well as native habitations dating tive center back 10,000 years; volunteers are welcome at relates the annual summer field work. story of the Black Hawk War, as well as the interactions between the Sauk and",
          "notes": ""
        },
        {
          "number": 6,
          "name": "Carl and Myrna Nygren",
          "address": "",
          "city": "1 mile west of Rockton",
          "state": "IL",
          "zip": "",
          "phone": "",
          "hours": "",
          "websites": [],
          "description": "Mesquakie (Fox) and lead miners in Wetland Preserve (Entrance is across from Macktown)",
          "notes": ""
        },
        {
          "number": 7,
          "name": "Burpee Museum",
          "address": "",
          "city": "",
          "state": "",
          "zip": "",
          "phone": "",
          "hours": "",
          "websites": [],
          "description": "",
          "notes": ""
        },
        {
          "number": 8,
          "name": "",
          "address": "",
          "city": "Rockford",
          "state": "IL",
          "zip": "",
          "phone": "815.987.8800",
          "hours": "",
          "websites": [
            "sinnissippi-park.html",
            "www.rockfordparks.org"
          ],
          "description": "Beattie Mound Group parks/sinnissippi-park.html 815.987.8800 group of Hopewellian burial mounds www.rockfordparks.org and the Sterling-Rock Falls Historical SoAn effigy mound group dating to the ciety Museum on 3rd Street in Sterling Late Woodland period is located in a has information on the mounds. downtown Rockford park just west of the Rock River.",
          "notes": ""
        },
        {
          "number": 9,
          "name": "",
          "address": "",
          "city": "Thomson Mound on",
          "state": "IL",
          "zip": "61021",
          "phone": "815.652.4551",
          "hours": "",
          "websites": [
            "mvr.usace.army.mil/Missions/Recre-",
            "deere.com/",
            "ThomsonCauseway.aspx",
            "thomsonillinois.com/thomson-cause-",
            "historicalsite.page",
            "museum.state.il.us/iaaa"
          ],
          "description": "Lewis Ave., Thomson, IL May-Oct: We815.259.3628 Su 9AM-5PM mvr.usace.army.mil/Missions/Recre- 815.652.4551 ation/MississippiRiverProject/Recre- deere.com/ ation/ThomsonCauseway.aspx wps/dcom/en_ thomsonillinois.com/thomson-cause- US/corporate/our_company/fans_visiway/ tors/tours_attractions/historicalsite.page Woodland period mound can be Exhibit hall has on display the 1963 viewed along a path at the Mississippi excavations of John Deere’s blacksmith River edge. shop where he developed the first successful steel plow in 1837. museum.state.il.us/iaaa Northwest Illinois 7",
          "notes": ""
        },
        {
          "number": 10,
          "name": "Jarrett Prairie Center northwest Illinois",
          "address": "815.964.6666 7993 N. River Rd., Byron, IL 61010",
          "city": "",
          "state": "",
          "zip": "61010",
          "phone": "815.964.6666",
          "hours": "",
          "websites": [
            "naturalland.org/nygren.html",
            "byronforestpreserve.com"
          ],
          "description": "naturalland.org/nygren.html M-F 8AM-4:30PM (Tu &Th until 8PM); Owned by the Natural Land Insti- Sa 9AM-4PM, Su 1-4PM tute, this 700-acre preserve encompasses 815.234.8535 many Native American sites including byronforestpreserve.com two mound groups; look for signage Museum displays include information on the aralong the Diana Nora Nature Trail. chaeology of the Rock River area of Ogle County.",
          "notes": ""
        },
        {
          "number": 11,
          "name": "Albany Mounds of Natural History State Historic Site",
          "address": "737 N. Main St., Rockford, IL 61103 South Cherry Street, Albany, IL",
          "city": "",
          "state": "",
          "zip": "61103",
          "phone": "309.788.0177",
          "hours": "",
          "websites": [
            "albanymounds.com",
            "burpee.org",
            "illinois.gov/ihpa/Experience/Sites/",
            "Albany-Mounds.aspx"
          ],
          "description": "10AM-5PM daily; Fr-Sa until 8PM 309.788.0177 815.965.3433 albanymounds.com burpee.org illinois.gov/ihpa/Experience/Sites/ Natural sci- NorthWest/Pages/Albany-Mounds.aspx ences mu- The Albany site is a large Middle Woodland seum with an mound and village complex dating between emphasis on 200 BC and AD 300; it originally congeology and tained 96 burial mounds, making it one of paleontology the largest mound groups in Illinois. has a time line “The First People” with displays",
          "notes": ""
        },
        {
          "number": 12,
          "name": "Sinnissippi Park",
          "address": "",
          "city": "north of Sterling",
          "state": "IL",
          "zip": "",
          "phone": "815.622.6200",
          "hours": "",
          "websites": [
            "sterlingparks.org/facilities-a-parks/"
          ],
          "description": "American artifacts. 815.622.6200",
          "notes": ""
        },
        {
          "number": 13,
          "name": "John Deere Historic Site",
          "address": "8334 S. Clinton St., Grand Detour, Dix-",
          "city": "",
          "state": "",
          "zip": "",
          "phone": "",
          "hours": "",
          "websites": [],
          "description": "",
          "notes": ""
        },
        {
          "number": 14,
          "name": "",
          "address": "513 W. Second St., Dixon, IL 61021 arsenalhistoricalsociety.org/muTh-Fr 9AM-2PM, Sa 10AM–3PM seum/index.html",
          "city": "",
          "state": "",
          "zip": "61021",
          "phone": "309.782.5021",
          "hours": "",
          "websites": [
            "arsenalhistoricalsociety.org/muTh-Fr",
            "index.html",
            "specilovelandcommunityhouse.org/mu-"
          ],
          "description": "Loveland Community Tu-Sa 12-4PM House Museum 309.782.5021 815.284.2741 North American battlefield specilovelandcommunityhouse.org/mu- mens are included in the extenseum/ sive weapons exhibits. Museum has local history items including prehistoric stone artifacts.",
          "notes": ""
        },
        {
          "number": 15,
          "name": "",
          "address": "205 West Fifth Street, 309.788.9536",
          "city": "Rock Island",
          "state": "IL",
          "zip": "61021",
          "phone": "309.788.9536",
          "hours": "",
          "websites": [
            "park.org/mu815.288.5508",
            "nthc.org/"
          ],
          "description": "Territory Historic 61201 Center We-Su 9AM-12, 1-5PM Dixon, IL 61021 blackhawkTu-Sa 9AM-4PM park.org/mu815.288.5508 seum nthc.org/ Museum Permanent exhibits include An exhibits inUnchanged Land Native Ameri- clude a time can – Black Hawk War. line with artifact displays",
          "notes": ""
        },
        {
          "number": 16,
          "name": "Rock Island Arsenal and 18th to Museum 19th century Building 60, artifacts from",
          "address": "",
          "city": "",
          "state": "IL",
          "zip": "61299",
          "phone": "",
          "hours": "",
          "websites": [],
          "description": "Rock Island Sauk and Arsenal, Mesquakie tribes who lived nearby. Rock Island, IL 61299",
          "notes": ""
        },
        {
          "number": 17,
          "name": "Colonel Davenport Home North Shore of Arsenal Island, Rock",
          "address": "",
          "city": "Rock Island",
          "state": "IL",
          "zip": "",
          "phone": "309.786.7336",
          "hours": "",
          "websites": [
            "davenporthouse.org"
          ],
          "description": "61204 May-Oct: Th-Su 12-4PM Items found at excavations at George Davenport’s 1833 home are exhibited.",
          "notes": ""
        },
        {
          "number": 18,
          "name": "Black Hawk State Historic Site Hauberg Indian Museum",
          "address": "",
          "city": "",
          "state": "",
          "zip": "",
          "phone": "",
          "hours": "",
          "websites": [],
          "description": "",
          "notes": ""
        },
        {
          "number": 19,
          "name": "Rock Island County (Visitors use Historical Society",
          "address": "",
          "city": "Moline",
          "state": "IL",
          "zip": "61265",
          "phone": "",
          "hours": "",
          "websites": [],
          "description": "We-Sa 9AM-4PM",
          "notes": ""
        },
        {
          "number": 20,
          "name": "Geneseo Historical Labor Day",
          "address": "205 S. State St., Geneseo, IL 61254 9AM-5PM",
          "city": "",
          "state": "",
          "zip": "61254",
          "phone": "309.854.9701",
          "hours": "",
          "websites": [
            "kewaneehistory.com",
            "geneseohistoricalmuseum.com"
          ],
          "description": "Association Weekend By appointment, 9AM-noon, 1-3PM 309.854.9701 Jun-Aug: Sa 2-4PM kewaneehistory.com 309.944.3043 Three floors of local history include geneseohistoricalmuseum.com prehistoric stone tools donated by The large Italianate home, originally local collectors. constructed in 1855, has displays including local American Indian artifacts.",
          "notes": ""
        },
        {
          "number": 21,
          "name": "",
          "address": "",
          "city": "Historic Site Princeton",
          "state": "IL",
          "zip": "61409",
          "phone": "815.875.2184",
          "hours": "",
          "websites": [
            "bureaucountymuseum.com",
            "state.il.us/"
          ],
          "description": "Bishop Hill State 109 Park Ave. West, Bishop Hill, IL 61409 Mar-Nov: We-Sa 1-5PM We-Su 9AM-5PM 815.875.2184 309.927.3345 bureaucountymuseum.com state.il.us/ Exhibits include Native American hpa/hs/bish- artifacts. op_hill.htm bishophill. com Bishop Hill Colony was a mid-1800s utopian community founded a group of Swedish religious dissidents; the Colony Church includes an exhibit on archaeological investigations at Bishop Hill.",
          "notes": ""
        },
        {
          "number": 22,
          "name": "Henry County Historical Society Museum",
          "address": "202 S. Park St., Bishop Hill, IL",
          "city": "",
          "state": "",
          "zip": "",
          "phone": "309.927.3528",
          "hours": "",
          "websites": [
            "bishophill.com",
            "museum.state.il.us/iaaa"
          ],
          "description": "61419 May-Oct: 10AM-4PM Museum displays include an exhibit with stone tools illustrating the prehistory of Henry County. Albany Mounds State Historic Site museum.state.il.us/iaaa Northwest Illinois 9",
          "notes": ""
        },
        {
          "number": 23,
          "name": "Kewanee Historical",
          "address": "",
          "city": "Kewanee",
          "state": "IL",
          "zip": "",
          "phone": "309.764.8590",
          "hours": "",
          "websites": [
            "www.richs.cc/"
          ],
          "description": "309.764.8590 Society Exhibits include prehistoric and 61443 historic period Native American May-Oct: Th artifacts. & Sa 1:304PM",
          "notes": ""
        },
        {
          "number": 24,
          "name": "Bureau County Museum",
          "address": "",
          "city": "",
          "state": "",
          "zip": "",
          "phone": "",
          "hours": "",
          "websites": [],
          "description": "",
          "notes": ""
        }
      ]
    },
    {
      "region": "Northeast Illinois",
      "sites": [
        {
          "number": 1,
          "name": "Elizabeth Lake Nature Preserve Varga Archaeological Site",
          "address": "",
          "city": "Richmond",
          "state": "IL",
          "zip": "",
          "phone": "815.338.6223",
          "hours": "",
          "websites": [
            "mccdistrict.org"
          ],
          "description": "345-acre preserve includes an archaeological site complex.",
          "notes": ""
        },
        {
          "number": 2,
          "name": "Powers-Walker House at Glacial Park",
          "address": "",
          "city": "Ringwood",
          "state": "IL",
          "zip": "60072",
          "phone": "815.338.6223",
          "hours": "Open for special events",
          "websites": [
            "mccdistrict.org"
          ],
          "description": "Rte. 31 & Harts Rd., Archaeological investigations at the 1854 Greek Revival farmhouse are",
          "notes": ""
        },
        {
          "number": 3,
          "name": "",
          "address": "360 Park St., Elgin, IL 60120 The museum has over 25 exhibits on local",
          "city": "",
          "state": "",
          "zip": "60120",
          "phone": "630.584.6967",
          "hours": "",
          "websites": [
            "stcmuseum.org"
          ],
          "description": "Elgin Area Historical 630.584.6967 Society & Museum stcmuseum.org We-Sa 12- history, including American Indian stone 4PM artifacts and handicrafts. elginhistory.",
          "notes": ""
        },
        {
          "number": 4,
          "name": "St. Charles History Museum",
          "address": "",
          "city": "St. Charles",
          "state": "IL",
          "zip": "60174",
          "phone": "",
          "hours": "",
          "websites": [],
          "description": "Tu-Sa 10AM-4PM; Ju-Aug: Su 12-4PM",
          "notes": ""
        },
        {
          "number": 5,
          "name": "Garfield Farm Inn & org Museum",
          "address": "",
          "city": "",
          "state": "IL",
          "zip": "60147",
          "phone": "630.584.8485",
          "hours": "",
          "websites": [
            "garfieldfarm.org"
          ],
          "description": "Museum ex- 3N016 Garfield Rd., LaFox IL 60147 hibits include Jun-Sep: We & Su 1-4PM the E. Maude 630.584.8485 and Carl garfieldfarm.org Parlasca Native American Collection, housed Museum includes original 1840s buildings and in Old Main, an 1856 building that was once period events and educational programs; selected part of the Elgin Academy. artifacts from on-site excavations are displayed.",
          "notes": ""
        },
        {
          "number": 6,
          "name": "Schingoethe Center for Native",
          "address": "",
          "city": "",
          "state": "",
          "zip": "",
          "phone": "",
          "hours": "",
          "websites": [],
          "description": "",
          "notes": ""
        },
        {
          "number": 7,
          "name": "Addison Historical Museum",
          "address": "",
          "city": "",
          "state": "",
          "zip": "",
          "phone": "",
          "hours": "",
          "websites": [],
          "description": "",
          "notes": ""
        },
        {
          "number": 8,
          "name": "Winfield Mounds Portage Woods, 4600 S. Harlem Ave.,",
          "address": "",
          "city": "Forest Preserve Lyons",
          "state": "IL",
          "zip": "",
          "phone": "800.870.3666",
          "hours": "",
          "websites": [
            "chicagoportage.org",
            "fpdcc.com",
            "dupageforest.com/Conservation/Forest_Preserves/"
          ],
          "description": "Winfield Road, between Geneva Road and High 800.870.3666 Lake Road, Winfield, IL chicagoportage.org 630.933.7200 fpdcc.com dupageforest.com/Conservation/Forest_Preserves/ The first Europeans to traverse the portage beWinfield_Mounds.aspx tween the Great Lakes and the Mississippi River The three conical mounds within the forest preserve system in 1673 were Marquette and Jolliet. are thought to date to the Late Woodland period, between AD 600-1000.",
          "notes": ""
        },
        {
          "number": 9,
          "name": "",
          "address": "3S 530 Second St., Warrenville, IL 60555 fieldmuseum.org",
          "city": "",
          "state": "",
          "zip": "60555",
          "phone": "312.922.9410",
          "hours": "Warrenville Historical Daily 9AM-5PM",
          "websites": [
            "fieldmuseum.org"
          ],
          "description": "Museum 312.922.9410 Feb-Nov: Su The outstanding natural history and ethno1-4PM; Jun-Aug: graphic exhibits at the Field Museum include also We 1-4PM material from Illinois archaeological sites. warrenvillehistori-",
          "notes": ""
        },
        {
          "number": 10,
          "name": "Mitchell Museum of the northeast Illinois American Cultures American Indian",
          "address": "",
          "city": "Aurora",
          "state": "IL",
          "zip": "60506",
          "phone": "630.844.7843",
          "hours": "",
          "websites": [
            "aurora.edu/museum",
            "mitchellmuseum.org"
          ],
          "description": "630.844.7843 Tu-Sa 10AM-5PM; Th until 8PM; Su 12-4PM aurora.edu/museum 847.475.1030 The museum, relocating to the new Aurora Uni- mitchellmuseum.org versity Welcome Center, reopens in January The museum, with a focus on North Ameri2015 including a display of ancient Native can Indian art, culture, and history, includes American artifacts. some prehistoric artifacts.",
          "notes": ""
        },
        {
          "number": 11,
          "name": "Potawatomi Village",
          "address": "131 W. Lake St., Addison, IL 60101 Marker",
          "city": "Forest Park",
          "state": "IL",
          "zip": "60101",
          "phone": "708.366.1900",
          "hours": "",
          "websites": [
            "www.oprfhistory.org/explore_local_history/",
            "default.aspx",
            "tory.shtml"
          ],
          "description": "Sa 10AM-2PM; Forest Home Cemetery 3PM 708.366.1900 630.628.1433 www.oprfhistory.org/explore_local_history/ addisonadvantage. foresthome/default.aspx org/visitors/his- The Forest Home Cemetery, once the tory.shtml location of a Potawatomi village and burial Located in the ground, has an historical monument noting 1892 Balzer House, this local historical mu- its location. seum includes an exhibit with area American Indian artifacts.",
          "notes": ""
        },
        {
          "number": 12,
          "name": "Chicago Portage National Historic Site",
          "address": "",
          "city": "",
          "state": "",
          "zip": "",
          "phone": "",
          "hours": "",
          "websites": [],
          "description": "",
          "notes": ""
        },
        {
          "number": 13,
          "name": "Field Museum",
          "address": "1400 S. Lake Shore Dr., Chicago, IL 60605",
          "city": "",
          "state": "",
          "zip": "60605",
          "phone": "",
          "hours": "",
          "websites": [],
          "description": "",
          "notes": ""
        },
        {
          "number": 14,
          "name": "Plainfield Historical",
          "address": "",
          "city": "Plainfield",
          "state": "IL",
          "zip": "60544",
          "phone": "815.436.4073",
          "hours": "",
          "websites": [
            "cal.org",
            "museum.state.il.us/iaaa",
            "365plainfield.com/2013/02/22/plainfield-"
          ],
          "description": "cal.org Society Museum include a display of Sa 1-4PM Native American artifacts collected by an area family. 815.436.4073 museum.state.il.us/iaaa Northeast Illinois 11",
          "notes": ""
        },
        {
          "number": 15,
          "name": "",
          "address": "501 E. 135th St. (Romeo Rd.), jolietpark.org",
          "city": "Romeoville",
          "state": "IL",
          "zip": "",
          "phone": "815.741.7275",
          "hours": "",
          "websites": [
            "jolietpark.org"
          ],
          "description": "Isle a la Cache Museum 815.741.7275 60411 is an irregularly shaped embankment probTu-Sa 10AM- ably dating to the Middle Woodland period, 4PM, Su 12-4PM around 200 BC to AD 500. reconnectwith-",
          "notes": ""
        },
        {
          "number": 16,
          "name": "Joliet Iron Works Plaines River valHistoric Site ley, this mound Columbia Street, just east of Rte. 53 (Scott and village site St.) and east of the Ruby St. Bridge is affiliated with",
          "address": "",
          "city": "Joliet",
          "state": "IL",
          "zip": "",
          "phone": "815.727.8700",
          "hours": "",
          "websites": [],
          "description": "reconnectwith-",
          "notes": ""
        },
        {
          "number": 17,
          "name": "Oakwood Mound Society Museum",
          "address": "",
          "city": "Joliet",
          "state": "IL",
          "zip": "61373",
          "phone": "815.667.4861",
          "hours": "",
          "websites": [
            "lasallecountymuseum.org"
          ],
          "description": "This low, broad burial mound is located in Sa-Su 12-4PM Oakwood Cemetery, Joliet, opposite the Apr-Nov: We-Fr 10AM-4PM intersection of Walnut Street and U.S. 30; Dec-Mar: Th-Fr 10AM-4PM the Woodland period mound may be a little 815.667.4861 older than the Briscoe Mounds. lasallecountymuseum.org Housed in a former limestone warehouse",
          "notes": ""
        },
        {
          "number": 18,
          "name": "Higginbotham Woods historical-society-museum/ Earthwork",
          "address": "",
          "city": "Located in an old grain elevator office on Ill. Joliet",
          "state": "IL",
          "zip": "",
          "phone": "",
          "hours": "",
          "websites": [],
          "description": "Rte. 126, the museum has a display of local From U.S. 30 west of the I-80 interchange, go Native American artifacts. north on Gougar St., then east on Francis Rd. Look for roadside parking and follow trail north.",
          "notes": ""
        },
        {
          "number": 19,
          "name": "Briscoe Mounds",
          "address": "",
          "city": "Channahon",
          "state": "IL",
          "zip": "",
          "phone": "",
          "hours": "",
          "websites": [
            "nature.org/",
            "dnr.state.il.us/lands/landmgt/parks/i&m/",
            "sites.htm"
          ],
          "description": "Located on an 80-acre island in the Des dnr.state.il.us/lands/landmgt/parks/i&m/ Plaines River, museum exhibits recreate the CORRIDOR/archeo/sites/sites.htm fur trade era of the 18th century, when French Situated along traders encountered the native Potowatomi. the northern side of the Des",
          "notes": ""
        },
        {
          "number": 20,
          "name": "Putnam County Historical",
          "address": "",
          "city": "Hennepin",
          "state": "IL",
          "zip": "61327",
          "phone": "815.925.7560",
          "hours": "",
          "websites": [
            "nature.org/",
            "rootsweb.ancestry.com/~ilpchs/"
          ],
          "description": "nature.org/ Society & Museum Joliet-Iron- Apr-Dec: We, Fr 10AM-3PM Works 815.925.7560 Archaeological investigations at this impor- rootsweb.ancestry.com/~ilpchs/ tant industrial site showed that the founda- Museum with a focus on county history and tions of 19th-century blast furnaces and agricultural heritage has a display of locally related facilities are still present and can be collected Native American artifacts. viewed along a walking trail.",
          "notes": ""
        },
        {
          "number": 21,
          "name": "",
          "address": "",
          "city": "",
          "state": "",
          "zip": "",
          "phone": "",
          "hours": "",
          "websites": [],
          "description": "LaSalle County Historical",
          "notes": ""
        },
        {
          "number": 22,
          "name": "",
          "address": "",
          "city": "Utica",
          "state": "IL",
          "zip": "61373",
          "phone": "815.423.6370",
          "hours": "",
          "websites": [
            "fs.usda.gov/midewin",
            "dnr.state.il.us/"
          ],
          "description": "Starved Rock State Park 815.423.6370 815.667.4726 Nearly 20,000 acres of former farmland, once dnr.state.il.us/ the location of the Joliet Arsenal, are undergolands/landmgt/ ing restoration by the U.S. Department of parks/i&M/ Agriculture Forest Service; visitors can learn east/starve/park. about prairie ecology and early inhabitants at htm the Welcome Center. The Starved Rock region was the location of human settle-",
          "notes": ""
        },
        {
          "number": 23,
          "name": "Grundy County Court includes several documented archaeological sites. House",
          "address": "111 E. Washington St., Morris, IL 60450",
          "city": "",
          "state": "",
          "zip": "60450",
          "phone": "",
          "hours": "",
          "websites": [],
          "description": "",
          "notes": ""
        },
        {
          "number": 24,
          "name": "Illinois and Michigan Permanent exhibits include American Indian Canal National Heritage artifacts related to cultural periods, with an Corridor extensive display of Potawattomi material from",
          "address": "401 Ottawa St. (Visitor Center), Morris, IL a nearby site.",
          "city": "",
          "state": "",
          "zip": "",
          "phone": "815.942.0796",
          "hours": "",
          "websites": [
            "Iandmcanal.org",
            "canalcor.org",
            "cr.nps.gov/heritageareas/AREAS/ILMI.HTM",
            "dnr.state.il.us/lands/landmgt/parks/i&m/",
            "main.htm",
            "museum.state.il.us/iaaa"
          ],
          "description": "60450 815.942.0796, 815.588.1100 The 97-mile long Illinois and Michigan Canal, completed in 1848, extends from Chicago to LaSalle-Peru, crossing through parts of five counties including many archaeological sites and museums, parks and natural areas. Mitchell Museum of the American Indian museum.state.il.us/iaaa Northeast Illinois 13",
          "notes": ""
        },
        {
          "number": 25,
          "name": "Midewin National erected in 1848 for the Illinois & Michigan Tallgrass Prairie",
          "address": "",
          "city": "Wilmington",
          "state": "IL",
          "zip": "60481",
          "phone": "",
          "hours": "of artifacts excavated from the Grand Village Trails: 4AM-10PM",
          "websites": [],
          "description": "of the Kaskaskia, located across the Illinois Welcome Center: Nov-Mar: River from Starved Rock. Mo-Fr 8AM-4:30PM Apr-Oct: Mo-Sa 8AM-4:30PM",
          "notes": ""
        },
        {
          "number": 26,
          "name": "Kankakee River State Park",
          "address": "",
          "city": "Bourbonnais",
          "state": "IL",
          "zip": "60914",
          "phone": "815.933.1383",
          "hours": "",
          "websites": [
            "dnr.state.il.us/lands/landmgt/parks/R2/",
            "KANKAKEE.HTM"
          ],
          "description": "tive groups and French explorers -- numerous 815.933.1383 archaeological investigations were conducted dnr.state.il.us/lands/landmgt/parks/R2/ within the park, and Visitor Center exhibits KANKAKEE.HTM interpret its complex culture history. The park extends for 11 miles along both sides of the Kankakee River northwest of Kankakee and",
          "notes": ""
        },
        {
          "number": 27,
          "name": "Kankakee County",
          "address": "815.942.9024 801 S. 8th St., Kankakee, IL 60901",
          "city": "",
          "state": "",
          "zip": "60901",
          "phone": "815.942.9024",
          "hours": "",
          "websites": [
            "kankakeecountymuseum.com"
          ],
          "description": "Mo-Fr 8AM-4:30PM Historical Museum Lobby display cases include locally collected Tu-Fr 10AM-4PM; Sa 1-4PM artifacts. 815.932.5279",
          "notes": ""
        }
      ]
    },
    {
      "region": "West Central Illinois",
      "sites": [
        {
          "number": 1,
          "name": "Essley-Noble Museum",
          "address": "1406 SE 2nd Ave.,",
          "city": "Aledo",
          "state": "IL",
          "zip": "61231",
          "phone": "309.582.2280",
          "hours": "",
          "websites": [
            "mchsil.org"
          ],
          "description": "Apr-Oct: We, Sa, Su 1-5PM Nov-Mar: Sa 124PM The museum, managed by the Mercer County Historical displays of artifacts donated by local collectors. Society, has an exhibit of prehistoric Native American artifacts found in Mercer County.",
          "notes": ""
        },
        {
          "number": 2,
          "name": "",
          "address": "314 Fifth St., Lacon, IL 61540 309.221.3864",
          "city": "Monmouth",
          "state": "IL",
          "zip": "61540",
          "phone": "309.221.3864",
          "hours": "",
          "websites": [
            "www.warrencountyhistoricalsociety.net",
            "marshallcountyhistory.org"
          ],
          "description": "Historical Society & Museum 1st Su of the month, 1-4PM Tu & We 9AM-noon, Sa10AM-noon www.warrencountyhistoricalsociety.net 309.246.2349 Located in the old Solid Rich Church building, marshallcountyhistory.org County historical items include a case of local The museum has on display several diverse col- American Indian artifacts. lections, including American Indian artifacts.",
          "notes": ""
        },
        {
          "number": 3,
          "name": "",
          "address": "202 Main St., New Boston, IL 61272 309.289.6919",
          "city": "Knoxville",
          "state": "IL",
          "zip": "61272",
          "phone": "309.289.6919",
          "hours": "Society and Museum Open by appointment",
          "websites": [
            "kville.org/kchis309-587-8181"
          ],
          "description": "Apr.-Oct.: Su 1-5PM kville.org/kchis309-587-8181 tory/Museum. Museum includes a display of local American html Indian artifacts. The county museum is located in",
          "notes": ""
        },
        {
          "number": 4,
          "name": "",
          "address": "",
          "city": "Raritan",
          "state": "IL",
          "zip": "",
          "phone": "",
          "hours": "Open seasonally and includes",
          "websites": [
            "hendersoncountyillinoismuseum.com/"
          ],
          "description": "hendersoncountyillinoismuseum.com/ American Indian Museum complex of five buildings includes artifacts donated by area residents.",
          "notes": ""
        },
        {
          "number": 5,
          "name": "Warren County History Museum",
          "address": "",
          "city": "",
          "state": "",
          "zip": "",
          "phone": "",
          "hours": "",
          "websites": [],
          "description": "",
          "notes": ""
        },
        {
          "number": 6,
          "name": "Knox County Museum",
          "address": "",
          "city": "",
          "state": "",
          "zip": "",
          "phone": "",
          "hours": "",
          "websites": [],
          "description": "",
          "notes": ""
        },
        {
          "number": 7,
          "name": "",
          "address": "723 N. 4th St., Chillicothe, IL 61523 NAUVOO.HTM",
          "city": "",
          "state": "",
          "zip": "61523",
          "phone": "217.453.6671",
          "hours": "",
          "websites": [
            "dnr.state.il.us/lands/landmgt/PARKS/R4/",
            "NAUVOO.HTM",
            "nauvoohistoricalsociety.org",
            "chillicothehistorical.org"
          ],
          "description": "Chillicothe Historical 217.453.6671 West Central Illinois Society Museum dnr.state.il.us/lands/landmgt/PARKS/R4/ We, 1st Su of the month, 1-4 PM nauvoohistoricalsociety.org Summer: We, Sa, Su 1-4PM Housed in a restored home originally built by 309.274.9076 Mormons in the 1840s, the museum exhibits chillicothehistorical.org. artifacts from all periods of Nauvoo’s history, Permanent exhibits include American Indian artifacts. from Native American occupation to the 1930s.",
          "notes": ""
        },
        {
          "number": 8,
          "name": "Peoria Riverfront Museum",
          "address": "222 SW Washington St., Peoria IL 61602",
          "city": "",
          "state": "",
          "zip": "61602",
          "phone": "",
          "hours": "",
          "websites": [],
          "description": "",
          "notes": ""
        },
        {
          "number": 9,
          "name": "Wildlife Prairie State Park Permanent displays include American",
          "address": "3826 N. Taylor Rd., Hanna City, IL 61536 Indian exhibits.",
          "city": "",
          "state": "",
          "zip": "61536",
          "phone": "309.676.0998",
          "hours": "",
          "websites": [],
          "description": "9AM-4:30PM",
          "notes": ""
        },
        {
          "number": 10,
          "name": "",
          "address": "",
          "city": "Nauvoo",
          "state": "IL",
          "zip": "62354",
          "phone": "",
          "hours": "",
          "websites": [
            "nauvoohistoricalsociety.org"
          ],
          "description": "May-Oct: 1-4PM Mounds is one of nauvoohistoricalsociety.org the major on-site The 1840s Greek Revival home includes a archaeological local artifact collection. museums in the country, and is",
          "notes": ""
        },
        {
          "number": 11,
          "name": "Rheinberger Museum now a partner in",
          "address": "",
          "city": "the Nature Consouth edge of Navoo",
          "state": "IL",
          "zip": "62354",
          "phone": "",
          "hours": "",
          "websites": [
            "museum.state.il.us/iaaa"
          ],
          "description": "museum.state.il.us/iaaa West Central Illinois 15",
          "notes": ""
        },
        {
          "number": 12,
          "name": "LaHarpe Historical",
          "address": "12-5PM 111 E. Main, LaHarpe, IL 61450",
          "city": "",
          "state": "",
          "zip": "61450",
          "phone": "217.659.3635",
          "hours": "closed some Mo & Sa 9-11AM & 1-4 PM",
          "websites": [
            "carthage.lib.il.us/community/museums.html",
            "peoriariverfrontmuseum.org"
          ],
          "description": "Mo-Th 10AM-5PM; Fr-Sa 10AM-8PM, Su Society Museum Mondays Sep - 217.659.3635 May carthage.lib.il.us/community/museums.html 309.686.7000 Permanent displays include local artifacts.",
          "notes": ""
        },
        {
          "number": 13,
          "name": "Kibbe Hancock Heritage Museum com- Museum",
          "address": "",
          "city": "Carthage",
          "state": "IL",
          "zip": "62321",
          "phone": "217.357.3119",
          "hours": "emphasizing art, natural history and science, and May-Sep: Daily 10AM-4PM",
          "websites": [
            "carthage.lib.il.us/community/museums.html"
          ],
          "description": "Lakeview Museum along with additional partners, Mo, We, Fr-Su 1-4PM includes Native American artifacts on exhibit. 217.357.3119",
          "notes": ""
        },
        {
          "number": 14,
          "name": "Dickson Mounds Museum",
          "address": "",
          "city": "000-acre zoological park has the kinds Lewistown",
          "state": "IL",
          "zip": "61542",
          "phone": "309.547.3721",
          "hours": "of animals that were on the prairie during Daily 8:30AM-5PM",
          "websites": [
            "wildlifeprairiestatepark.org",
            "museum.state.il.us/ismsites/dickson/",
            "experiencedicksonmounds.com"
          ],
          "description": "wildlifeprairiestatepark.org 10956 N. Dickson Mounds Rd., pioneer days; there is a pioneer farmstead 309.547.3721 and a visitor center that includes a display of museum.state.il.us/ismsites/dickson/ Native American artifacts. experiencedicksonmounds.com A branch of the Illinois State Museum and a",
          "notes": ""
        }
      ]
    },
    {
      "region": "Lower Illinois River",
      "sites": [
        {
          "number": 1,
          "name": "Indian Mounds Park",
          "address": "",
          "city": "Quincy",
          "state": "IL",
          "zip": "",
          "phone": "217.223.7703",
          "hours": "",
          "websites": [
            "quincyparkdistrict.com"
          ],
          "description": "5th and Harrison, The 37-acre park at the southwest edge of Quincy, overlooking the Mississippi River, includes several Woodland period mounds and a walking time line with interpretive panels and engravings of artifacts on concrete blocks.",
          "notes": ""
        },
        {
          "number": 2,
          "name": "Quincy Museum",
          "address": "1601 Maine St., Quincy, IL 62301",
          "city": "",
          "state": "",
          "zip": "62301",
          "phone": "217.224.7669",
          "hours": "",
          "websites": [
            "thequincymuseum.com"
          ],
          "description": "Tu-Su 1-5PM With an emphasis on natural history, the museum has a large collection of area Native American artifacts, with a portion of the collec-",
          "notes": ""
        },
        {
          "number": 3,
          "name": "Old Lincoln Courtroom & A National Historic Landmark located",
          "address": "101 W. 3rd St., Beardstown, IL 62618 the earliest town in the United States to be",
          "city": "Museum southwest of Barry",
          "state": "IL",
          "zip": "62618",
          "phone": "217.323.4514",
          "hours": "",
          "websites": [
            "stown.org"
          ],
          "description": "Apr-Nov: Mo-Sa 10AM-4PM platted by an African American, Free Frank 217.323.4514 McWorter; this was the location of recent lincolninbeard- archaeological investigations. Restored court-",
          "notes": ""
        },
        {
          "number": 4,
          "name": "New Philadelphia Town Site",
          "address": "",
          "city": "tion on display. Barry",
          "state": "IL",
          "zip": "",
          "phone": "",
          "hours": "",
          "websites": [
            "newphiladelphiail.org"
          ],
          "description": "",
          "notes": ""
        },
        {
          "number": 5,
          "name": "Ray Norbut State Fish & room where Wildlife Area",
          "address": "",
          "city": "Griggsville",
          "state": "IL",
          "zip": "62340",
          "phone": "217.833.2811",
          "hours": "",
          "websites": [
            "dnr.state.il.us/lands/Landmgt/PARKS/R4/",
            "ray.htm"
          ],
          "description": "participated in tri- 217.833.2811 als has a display of dnr.state.il.us/lands/Landmgt/PARKS/R4/ locally collected Native American artifacts. ray.htm This conservation area, with more than 1,000",
          "notes": ""
        },
        {
          "number": 6,
          "name": "",
          "address": "",
          "city": "",
          "state": "IL",
          "zip": "62363",
          "phone": "217.285.4618",
          "hours": "",
          "websites": [
            "Peremarq.htm"
          ],
          "description": "Pike County Historical Peremarq.htm Society Museum This 8,000-acre 400 E. Jeffer- preservation area son, Pittsfield, offers spectacular IL 62363 views of the IlWe-Sa 10AM- linois and Missis2PM sippi Rivers from 217.285.4618 several bluff top Located in the points; numerous archaeological studies have Historic East been conducted at the park, and the visitor School, the his- center and hiking trails include information tory museum in- about some of the archaeological sites there. cludes a display of Native American artifacts.",
          "notes": ""
        },
        {
          "number": 7,
          "name": "Center for American Archeology Museum and Visitor Center",
          "address": "",
          "city": "Kampsville",
          "state": "IL",
          "zip": "62053",
          "phone": "618.653.4316",
          "hours": "",
          "websites": [
            "caa-archeology.org"
          ],
          "description": "Apr-Oct: Tu-Fr 10AM-5PM, Sa 10AM-4PM, Su 12-4PM The CAA Museum and Visitor Center features artifacts, exhibits, and media presentations highlighting the cultural history and archeological resources of the lower Illinois River valley, and visitors can view ongoing Quincy Museum summer excavations.",
          "notes": ""
        },
        {
          "number": 8,
          "name": "Two Rivers National Nations Museum",
          "address": "",
          "city": "Elsah",
          "state": "IL",
          "zip": "62028",
          "phone": "618.374.5236",
          "hours": "",
          "websites": [
            "community.principia.edu/museum",
            "fws.gov/refuge/"
          ],
          "description": "Headquarters and Visitors Center, Hagen School hours & by appt. Road, Calhoun County 618.374.5236 618.883.2524 community.principia.edu/museum fws.gov/refuge/ Museum includes American Indian collectwo_rivers tions. Located in the Calhoun Division,",
          "notes": ""
        },
        {
          "number": 9,
          "name": "Pere Marquette State Park Lower Illinois River",
          "address": "",
          "city": "includes Middle Grafton",
          "state": "IL",
          "zip": "62037",
          "phone": "618.786.3323",
          "hours": "",
          "websites": [
            "dnr.state.il.us/lands/Landmgt/PARKS/R4/"
          ],
          "description": "Woodland mounds and habitation areas. 618.786.3323",
          "notes": ""
        },
        {
          "number": 10,
          "name": "Principia School of",
          "address": "",
          "city": "",
          "state": "",
          "zip": "",
          "phone": "",
          "hours": "",
          "websites": [],
          "description": "",
          "notes": ""
        },
        {
          "number": 11,
          "name": "Village of Elsah Museum",
          "address": "",
          "city": "Elsah",
          "state": "IL",
          "zip": "62028",
          "phone": "618.374.1568",
          "hours": "",
          "websites": [
            "elash.org",
            "museum.state.il.us/iaaa"
          ],
          "description": "headquarters and Apr-Oct: Sa-Su 1-4PM visitors center for 618.374.1568 the Mark Twain elash.org National Wildlife Refuge includes area artifacts. Museum includes local history and artifacts. museum.state.il.us/iaaa Lower Illinois River 17",
          "notes": ""
        }
      ]
    },
    {
      "region": "Central Illinois",
      "sites": [
        {
          "number": 1,
          "name": "Fort Crevecoeur",
          "address": "",
          "city": "Coeur",
          "state": "IL",
          "zip": "61610",
          "phone": "309.694.3193",
          "hours": "Park: Daily, 7AM-8PM",
          "websites": [
            "ftcrevecoeur.org"
          ],
          "description": "508 Scenic Park Place, Creve The reproductions of a fort, Indian village, and trading house include a display of American Indian material.",
          "notes": ""
        },
        {
          "number": 2,
          "name": "Comlara Park",
          "address": "",
          "city": "Hudson",
          "state": "IL",
          "zip": "61748",
          "phone": "309.434.6770",
          "hours": "",
          "websites": [
            "mcleancountyil.gov"
          ],
          "description": "13001 Recreation Area Summer: 8AM-6PM The park visitor center, part of the Evergreen Lake public recreation complex, includes a display about the area’s American Indian inhabitants. the Grand Village of the Kickapoo, as well as some ancient Native American material.",
          "notes": ""
        },
        {
          "number": 3,
          "name": "McLean County Museum of History",
          "address": "",
          "city": "",
          "state": "",
          "zip": "",
          "phone": "",
          "hours": "",
          "websites": [],
          "description": "",
          "notes": ""
        },
        {
          "number": 4,
          "name": "Grand Village of the",
          "address": "200 N. Main St., Bloomington, IL 61701 Kickapoo Park",
          "city": "until Arrowsmith",
          "state": "IL",
          "zip": "61701",
          "phone": "309.261.3043",
          "hours": "",
          "websites": [
            "mchistory.org"
          ],
          "description": "Mo-Sa 10AM- 8144 N 3100 East Road, 9PM) 309.261.3043 309.827.0428 The park has an historical marker with mchistory.org information about the Kickapoo vilThe perma- lage occupied during the late 18th to nent exhibits early 19th centuries; it was the locainclude some tion of Illinois State University archaematerial from ological investigations.",
          "notes": ""
        },
        {
          "number": 5,
          "name": "Water Tower Museum",
          "address": "",
          "city": "",
          "state": "",
          "zip": "",
          "phone": "",
          "hours": "",
          "websites": [],
          "description": "",
          "notes": ""
        },
        {
          "number": 6,
          "name": "Rockwell Mound artifact collections.",
          "address": "",
          "city": "Havana",
          "state": "IL",
          "zip": "",
          "phone": "309.543.6240",
          "hours": "",
          "websites": [],
          "description": "",
          "notes": ""
        },
        {
          "number": 7,
          "name": "",
          "address": "15588 History Lane, Petersburg, IL 62575",
          "city": "",
          "state": "",
          "zip": "62575",
          "phone": "",
          "hours": "",
          "websites": [],
          "description": "Lincoln’s New Salem State archaeologists. Historic Site",
          "notes": ""
        },
        {
          "number": 8,
          "name": "Museum of the chipped stone and ground stone tools. Grand Prairie",
          "address": "600 N. Lombard St., Mahomet, IL 61853",
          "city": "",
          "state": "",
          "zip": "61853",
          "phone": "",
          "hours": "",
          "websites": [],
          "description": "",
          "notes": ""
        },
        {
          "number": 9,
          "name": "Chanute Air Museum Central Illinois",
          "address": "145 S. Market St., Paxton, IL 60957 1011 Pacesetter Dr., Rantoul, IL 61866",
          "city": "",
          "state": "",
          "zip": "60957",
          "phone": "217.379.3723",
          "hours": "",
          "websites": [
            "Roots.ancestry.com/~ilfchs/",
            "aeromuseum.org"
          ],
          "description": "Summer: Su 2-4PM Mo-Sa 10AM-5PM Winter: 1st Su of month 2-4PM May-Dec: Su 12-5PM 217.379.3723 217.893.1613 Roots.ancestry.com/~ilfchs/ aeromuseum.org Museum displays include Native American The largest aerospace museum in Illinois also artifacts collected from the area. includes prehistoric stone tools found on the former Air Force base property, and private",
          "notes": ""
        },
        {
          "number": 10,
          "name": "Kennekuk County Park havanaparkdis- Vermilion County Conservation District",
          "address": "",
          "city": "Danville",
          "state": "IL",
          "zip": "61834",
          "phone": "217.442.1691",
          "hours": "",
          "websites": [
            "trict.com",
            "vccd.org"
          ],
          "description": "You can imag- 217.442.1691 ine Indian life vccd.org as it was 2,000 Visitor Center has an artifact display and years ago at the Native American history exhibit, and a largest and best- self-guiding trail map notes the location preserved Middle Woodland Indian mound of the Collins site, a Late Woodland/ in the Midwest. Mississippian period village and mound site investigated by University of Illinois",
          "notes": ""
        },
        {
          "number": 11,
          "name": "Vermilion County Museum",
          "address": "",
          "city": "Danville",
          "state": "IL",
          "zip": "61832",
          "phone": "217.442.2922",
          "hours": "",
          "websites": [
            "lincolnsnewsalem.com",
            "museum.org"
          ],
          "description": "Nov-Feb: We-Su: 9AM-5PM Tu-Sa 10AM217.632.4000 5PM lincolnsnewsalem.com 217.442.2922 Abraham Lincoln lived in New Salem in the vermilioncounty1830s, and you can visit numerous buildings museum.org reconstructed to their period appearance; signs Museum for an “archaeology walk” show places exca- exhibits include vated during archaeological investigations. a collection of locally collected",
          "notes": ""
        },
        {
          "number": 12,
          "name": "Forest Glen Preserve",
          "address": "",
          "city": "Westville",
          "state": "IL",
          "zip": "61883",
          "phone": "217.586.2612",
          "hours": "",
          "websites": [
            "museumofthegrandprairie.org",
            "vccd.org/giforestglen.html",
            "museum.state.il.us/iaaa"
          ],
          "description": "Mar-Dec: Su 1-5PM Vermilion County Conservation District Jun-Aug: Mon-Sat 10AM-5PM Education Center Sun 1-4PM 217.586.2612 217.662.2142 museumofthegrandprairie.org vccd.org/giforestglen.html Museum emphasizes local natural and cul- Vermilion County Forest Preserve locatural history and early settlement; the Prairie tion has an exhibit with American InStories exhibit has a Native American di- dians artifacts at the Gannett Outdoor orama that includes a time line and artifacts. Education Center. museum.state.il.us/iaaa Central Illinois 19",
          "notes": ""
        },
        {
          "number": 13,
          "name": "Illinois State Museum",
          "address": "",
          "city": "",
          "state": "",
          "zip": "",
          "phone": "",
          "hours": "",
          "websites": [],
          "description": "",
          "notes": ""
        },
        {
          "number": 14,
          "name": "",
          "address": "426 S. 7th St. (Visitor Center), The visitor center has displays that include",
          "city": "Springfield",
          "state": "IL",
          "zip": "62701",
          "phone": "217.774.3951",
          "hours": "Daily: 8:30AM-5PM Lake Shelbyville area.",
          "websites": [
            "lakeshelbyville.com/attractions.htm",
            "nps.gov/liho"
          ],
          "description": "Lincoln Home National 217.774.3951 Historic Site lakeshelbyville.com/attractions.htm",
          "notes": ""
        },
        {
          "number": 15,
          "name": "",
          "address": "",
          "city": "Decatur",
          "state": "IL",
          "zip": "",
          "phone": "217.345.1845",
          "hours": "",
          "websites": [
            "www.maconcountyconservation.org"
          ],
          "description": "Rock Springs 217.345.1845 Nature Center lincolnlogcabin. Macon County Conservation District org 3939 Nearing 86-acre site Mo-Fr 8AM-5PM, 1840s living hisSa 9AM-4:30PM, tory farm; visitor center at Lincoln Log Cabin Su 1-4:30PM includes an exhibit “Reconstructing the Past,” 217.423.7708 about excavations prior to reconstruction.",
          "notes": ""
        },
        {
          "number": 16,
          "name": "Christian County",
          "address": "502 S. Spring St., Springfield, IL 62706 Historical Society & Museum",
          "city": "Taylorville",
          "state": "IL",
          "zip": "61568",
          "phone": "217.782.7386",
          "hours": "",
          "websites": [
            "museum.state",
            "il.us",
            "cchistoricalsociety.blogspot.com/"
          ],
          "description": "217.782.7386 Apr-Dec: Th-Sa 10AM-3PM museum.state. Dec-Mar: Sa 10AM-3PM il.us 217.824.6922 The Illinois cchistoricalsociety.blogspot.com/ State Museum Permanent exhibits include some locally colhas been telling lected Native American artifacts. the story of Illinois—its land,",
          "notes": ""
        },
        {
          "number": 17,
          "name": "Lake Shelbyville life, people, and Visitor Center art—since 1877 through research, educational Dam East Recreation area, Ill. Rte. 16,",
          "address": "",
          "city": "programs and exhibits -- those on Illinois Shelbyville",
          "state": "IL",
          "zip": "62565",
          "phone": "",
          "hours": "ing Native Americans from ancient times Apr & Oct: Daily, 9:30AM-4:30PM",
          "websites": [],
          "description": "archaeology feature life-sized dioramas depict- Nov-Mar: Mon-Fri 9:30AM-4:30PM through the post-contact period. May-Sep: Sun-Thu 9:30AM-4:30PM Fri & Sa 9:30AM – 6:30PM",
          "notes": ""
        },
        {
          "number": 18,
          "name": "Lincoln Log Cabin In the four-block neighborhood of Abraham Lin- State Historic Site",
          "address": "",
          "city": "Lerna",
          "state": "IL",
          "zip": "62440",
          "phone": "",
          "hours": "",
          "websites": [],
          "description": "House have exhibits that include information Nov-Mar: We-Su 9AM-4PM from excavations at the National Historic Site. Apr-May and Sep-Oct: We-Su 9AM-5PM Memorial Day-Labor Day: 9AM-5PM daily",
          "notes": ""
        },
        {
          "number": 19,
          "name": "Fayette County Museum",
          "address": "",
          "city": "Vandalia",
          "state": "IL",
          "zip": "62471",
          "phone": "618.283.4866",
          "hours": "",
          "websites": [
            "vandaliaillinois.com/museum.html"
          ],
          "description": "displays include an Mo-Sa 9:30AM-4PM; Apr-Dec: also Su 1-4PM exhibit “Digging 618.283.4866 into the Past” on Il- vandaliaillinois.com/museum.html linois archaeology. Museum includes an American Indian exhibit.",
          "notes": ""
        }
      ]
    },
    {
      "region": "American Bottom",
      "sites": [
        {
          "number": 1,
          "name": "Piasa Bird Memorial",
          "address": "",
          "city": "3 miles north of Alton",
          "state": "IL",
          "zip": "",
          "phone": "",
          "hours": "",
          "websites": [
            "greatriverroad.com/Cities/Alton/PiasaBird.htm"
          ],
          "description": "In 1673, Marquette and Jolliet observed two monsters painted on the limestone bluffs overlooking the Mississippi River; the current image is reconstructed from more recent lore.",
          "notes": ""
        },
        {
          "number": 2,
          "name": "Lewis and Clark State Historic Site",
          "address": "1 Lewis & Clark Trail, Hartford, IL 60248",
          "city": "",
          "state": "",
          "zip": "60248",
          "phone": "618.251.5811",
          "hours": "",
          "websites": [
            "campdubois.com",
            "illinois.gov/ihpa/Experience/Sites/Southwest/Pages/Lewis-Clark.aspx"
          ],
          "description": "May-Labor Day: Mo-Su 9AM-5PM Labor Day-Apr: We-Su 9AM-5PM established a winter camp in December, 1803 near Hartford",
          "notes": ""
        },
        {
          "number": 3,
          "name": "South Roxana Mounds Exhibits in a reSouth Roxana Park, Smith Street, South stored 1836 home",
          "address": "",
          "city": "Roxana",
          "state": "IL",
          "zip": "",
          "phone": "",
          "hours": "",
          "websites": [],
          "description": "Two mounds that may date to the Middle to Late Woodland period are visible",
          "notes": ""
        },
        {
          "number": 4,
          "name": "Madison County prior to starting Historical Museum",
          "address": "",
          "city": "Edwardsville",
          "state": "IL",
          "zip": "62025",
          "phone": "618.656.7562",
          "hours": "",
          "websites": [
            "tyhistoricalmuseum.org"
          ],
          "description": "two-year journey We-Fr 9AMof western 4PM; Su 1-4PM exploration of the Louisiana Territory; gallery 618.656.7562 exhibits include a 55-foot full scale replica of madisoncountheir keel boat. tyhistoricalmuseum.org",
          "notes": ""
        },
        {
          "number": 5,
          "name": "Horseshoe Lake State Park",
          "address": "618.931.0270 tage Site, Cahokia Mounds State",
          "city": "Granite City",
          "state": "IL",
          "zip": "60240",
          "phone": "618.931.0270",
          "hours": "",
          "websites": [
            "museum.state.il.us/iaaa",
            "dnr.state.il.us/lands/Landmgt/",
            "HORSESP.HTM"
          ],
          "description": "museum.state.il.us/iaaa American Bottom 21 dnr.state.il.us/lands/Landmgt/ Historic Site preserves 2,200 acres of PARKS/R4/HORSESP.HTM the largest pre-contact American InThe nearly 3,000-acre park area was dian community north of Mexico; the inhabited by Native Americans as original site covered nearly 6 square early as 10,000 years ago, and includes miles, included 120 mounds and, at the Horseshoe Lake platform mound its peak around AD 1050-1150, had a dating to the Mississippian period population of 10-20,000 people of the (AD 1000-1200). Mississippian culture.",
          "notes": ""
        },
        {
          "number": 6,
          "name": "Cahokia Courthouse",
          "address": "",
          "city": "",
          "state": "",
          "zip": "",
          "phone": "",
          "hours": "",
          "websites": [],
          "description": "",
          "notes": ""
        },
        {
          "number": 7,
          "name": "Cahokia Mounds 1350 Ill. Rte. 155,",
          "address": "30 Ramey St., Collinsville, IL 62234 Rocher, IL on Ill. Rte. 155",
          "city": "State Historic Site & Prairie du Rocher",
          "state": "IL",
          "zip": "62234",
          "phone": "618.284.7230",
          "hours": "May-Oct: Daily 9AM-5PM We-Su 9AMNov-Dec & Feb-Apr: We-Su 9AM-5PM 5PM",
          "websites": [
            "illinois.gov/",
            "Experiamounds.org",
            "Fort-de-Chartres.aspx",
            "greatriverroad.com/stegen/randattracsee",
            "tions.htm"
          ],
          "description": "Interpretive Center Site is four miles west of Prairie du Jan: We-Su 9AM-4PM 618.284.7230 Grounds, ftdechartres. 8AM-dusk com 618.346.5160 illinois.gov/ cahoki- ihpa/Experiamounds.org ence/Sites/ A UNESCO Southwest/ World Heri- Pages/Fort-de-Chartres.aspx Visitors to the Peithman Museum, in the 618.826.2667 king’s storehouse at Fort de Chartres, will greatriverroad.com/stegen/randattracsee on display many eighteenth-century tions.htm archaeological artifacts relating to the Exhibits include Native American French occupation of Randolph County. artifacts.",
          "notes": ""
        },
        {
          "number": 8,
          "name": "Emerald Mound",
          "address": "107 Elm St., Cahokia, IL 62206 Lebanon, IL vicinity",
          "city": "",
          "state": "",
          "zip": "62206",
          "phone": "618.332.1782",
          "hours": "",
          "websites": [
            "illinois.gov/ihpa/Experience/Sites/",
            "house.aspx"
          ],
          "description": "Mar-Oct: Th-Sa 8AM-5PM From Lebanon, take Ill. Rte. 4 north Nov-Feb: Th-Sa 9AM-4PM to Emerald Mound Road, turn east; 618.332.1782 mound is to illinois.gov/ihpa/Experience/Sites/ the south. Southwest/Pages/Cahokia-Court- A driver can house.aspx loop around Originally the mound by constructed taking Emerby the ald Mound French about Grange Road 1740, the Ca- south, then hokia Court- Midgley-Neiss Road west, back to Ill. house served Rte. 4. as the center Owned by the State of Illinois, the of political largest of the three remaining Misactivity in sissippian mounds in this group is a the North- large flat-topped pyramid, about 20 west Territory in the late 18th centu- feet high. ry; WPA excavations in the 1930s are included in the courthouse exhibits.",
          "notes": ""
        },
        {
          "number": 9,
          "name": "Fort de Chartres State Historic Site",
          "address": "",
          "city": "",
          "state": "",
          "zip": "",
          "phone": "",
          "hours": "",
          "websites": [],
          "description": "",
          "notes": ""
        },
        {
          "number": 10,
          "name": "Modoc Rock Shelter",
          "address": "",
          "city": "",
          "state": "",
          "zip": "",
          "phone": "",
          "hours": "",
          "websites": [],
          "description": "",
          "notes": ""
        },
        {
          "number": 11,
          "name": "Fort Kaskaskia State Historic Site",
          "address": "4372 Park Road, Ellis Grove, IL 62241",
          "city": "",
          "state": "",
          "zip": "62241",
          "phone": "618.859.3741",
          "hours": "Daily 8AM-4PM",
          "websites": [
            "illinois.gov/",
            "FortKaskaskia.aspx"
          ],
          "description": "ihpa/Experience/Sites/ Southwest/ Pages/FortKaskaskia.aspx The 200-acre bluff-top park includes the remnants of a French earthen-work and timber fortification constructed in the mid-1700s.",
          "notes": ""
        },
        {
          "number": 12,
          "name": "Randolph County Museum",
          "address": "1 Taylor St., Chester, IL 62233",
          "city": "",
          "state": "",
          "zip": "62233",
          "phone": "",
          "hours": "",
          "websites": [
            "museum.state.il.us/iaaa"
          ],
          "description": "Su, Mo, Th, Fr 12:30-3:30PM Archaeologists recording rock art at Piney Creek. museum.state.il.us/iaaa American Bottom 23",
          "notes": ""
        },
        {
          "number": 13,
          "name": "Piney Creek Ravine County Rte. 7, 2 mi SE State Natural Area of Prarie du Rocher c/o 4301 S. Lake Dr.,",
          "address": "",
          "city": "Listed on the National Register Chester",
          "state": "IL",
          "zip": "62233",
          "phone": "618.826.2706",
          "hours": "",
          "websites": [
            "dnr.state.il.us/Lands/landmgt/parks/",
            "pcr.htm"
          ],
          "description": "of Historic West of DuQuoin and south of Places and Steeleville on the Randolph-Jackson a National County line. Historic 618.826.2706 Landmark, dnr.state.il.us/Lands/landmgt/parks/ the sand- R4/pcr.htm stone bluff at Piney Creek Ravine contains the largest Modoc Rock body of prehistoric rock art in Illinois, Shelter pro- with almost 200 designs believed to vided shelter date to the Late Woodland (AD 500for Native 1000) and Mississippian (AD 1000American 1550) periods occur within the ravine. groups beginning shortly after the Ice Age, then continuing for almost 8,000 years.",
          "notes": ""
        }
      ]
    },
    {
      "region": "Wabash River",
      "sites": [
        {
          "number": 1,
          "name": "Ballard Nature Center",
          "address": "5253 E. U.S.Highway 40,",
          "city": "Altamont",
          "state": "IL",
          "zip": "62411",
          "phone": "618.483.6856",
          "hours": "Tu-Fr 8 AM-4PM; Sa noon-4PM",
          "websites": [
            "U.S.Highway",
            "ballardnaturecenter.org"
          ],
          "description": "Summer, also open Mon & Sun Six miles of trails provide access to 210 acres of woodland, tallgrass prairie and wetlands; Nature Center displays include a collection of projectile points donated by longtime collector John William Warner.",
          "notes": ""
        },
        {
          "number": 2,
          "name": "Teutopolis Monastery Museum",
          "address": "110 S. Garrett St.,",
          "city": "Teutopolis",
          "state": "IL",
          "zip": "62467",
          "phone": "217.857.3586",
          "hours": "",
          "websites": [
            "stfrancischurch.com/newsite/"
          ],
          "description": "Apr-Nov: 1st Su of month 12:30-4PM stfrancischurch.com/newsite/ word press/?page_ id=173 Within the museum,",
          "notes": ""
        },
        {
          "number": 3,
          "name": "Hutson Memorial which fea- Village Museum tures many One and a half miles south of Hutbooks and sonville on Outer South Rose Street.",
          "address": "",
          "city": "artifacts Hutsonville",
          "state": "IL",
          "zip": "62433",
          "phone": "618.546.1557",
          "hours": "",
          "websites": [
            "www.rootsweb.ancestry.com/~ilcchs/",
            "hutsonvillage.html"
          ],
          "description": "related to Jun-Sep: Su 2-4PM Franciscan 618.546.1557 Friars dur- www.rootsweb.ancestry.com/~ilcchs/ ing their Articles/hutsonvillage.html novitiate Museum includes five restored and year, is one recreated pioneer cabins, general room with displays related to lo- store and barbershop, a barn, workcal history, including some Native ing outhouse, family cabin, log barn, American material. and log church, recreating an 1812 EuroAmerican settlement; some ris site, dating to the Middle to Late Wabash River American Indian artifacts are in- Woodland period, and early 19thcluded in displays. century pioneer remains..",
          "notes": ""
        },
        {
          "number": 4,
          "name": "Newton Public Library",
          "address": "",
          "city": "",
          "state": "",
          "zip": "",
          "phone": "",
          "hours": "",
          "websites": [],
          "description": "",
          "notes": ""
        },
        {
          "number": 5,
          "name": "Crawford County Historical Museum",
          "address": "",
          "city": "",
          "state": "",
          "zip": "",
          "phone": "",
          "hours": "",
          "websites": [],
          "description": "",
          "notes": ""
        },
        {
          "number": 6,
          "name": "Fife Opera House",
          "address": "123 S Main St, Palestine, IL 62451",
          "city": "",
          "state": "",
          "zip": "62451",
          "phone": "618.586.9418",
          "hours": "Open for special events & by appointment",
          "websites": [
            "www.fifeoperahouse.org/",
            "Mormuseum.state.il.us/iaaa"
          ],
          "description": "Display of Palestinearea artifacts includes material from the Roy Mormuseum.state.il.us/iaaa Wabash River 25",
          "notes": ""
        },
        {
          "number": 7,
          "name": "Olney Carnegie Library District /Carnegie Building Museum",
          "address": "100 S. Van Buren St., Newton, IL 401 E Main",
          "city": "Olney",
          "state": "IL",
          "zip": "",
          "phone": "618.783.8141",
          "hours": "Open during 62294",
          "websites": [
            "newton.lib",
            "il.us/",
            "ums.org"
          ],
          "description": "library hours Apr-Nov: 618.783.8141 Sun. 1-4PM newton.lib. 618.395.1963 il.us/ richlandDisplays countymuseinclude some ums.org Native American artifacts. Library houses many local artifacts, including Native American artifacts.",
          "notes": ""
        },
        {
          "number": 8,
          "name": "White County",
          "address": "408 S. Cross St., Robinson, IL 62454 Historical Society",
          "city": "Carmi",
          "state": "IL",
          "zip": "62801",
          "phone": "618.544.3087",
          "hours": "",
          "websites": [
            "rootsweb.ancestry.com/~ilcchs/",
            "rootsweb.com/~ilwcohs/museums.htm"
          ],
          "description": "Sa-Su 2-4PM & by appointment L. Haas Store Museum rootsweb.ancestry.com/~ilcchs/ Open by appointment Museum, located in the former 618.382.8425 Schmidt Clin- rootsweb.com/~ilwcohs/museums.htm ic building, Along with tools, photographs, and has extensive vintage clothing, the museum has the displays of re- hanging tools of Phil Hanna, “the gional Wabash hangman,” and exhibits also include River valley Native American artifacts. material from both pre-contact Native American sites and pioneer-era sites, collected over several decades of archaeological investigations.",
          "notes": ""
        }
      ]
    },
    {
      "region": "Southern Illinois",
      "sites": [
        {
          "number": 1,
          "name": "Carlyle Lake Visitor Center",
          "address": "50 miles east of St. Louis,",
          "city": "Carlyle",
          "state": "IL",
          "zip": "62231",
          "phone": "618.594.5253",
          "hours": "Daily 10AM-6PM",
          "websites": [
            "mvs.usace.army.mil/Missions/Recreation/CarlyleLake/Recreation.aspx"
          ],
          "description": "MO on US 50, Apr-end of May and Sep: Sa & Su 10AM-6PM End of May -early Sep: Located at the southern end of the 26,000-acre lake, the visitor center has exhibits on the construction of the lake, natural history, and a display about area archaeology.",
          "notes": ""
        },
        {
          "number": 2,
          "name": "General John A. Logan Museum",
          "address": "1613 Edith St., Murphysboro, IL",
          "city": "",
          "state": "",
          "zip": "",
          "phone": "",
          "hours": "",
          "websites": [],
          "description": "62966 Jun-Aug: Tu-Sa",
          "notes": ""
        },
        {
          "number": 3,
          "name": "Giant City State Park",
          "address": "10AM-4PM; Su 235 Giant City Rd., Makanda, IL 62958",
          "city": "",
          "state": "",
          "zip": "62958",
          "phone": "618.457.4836",
          "hours": "",
          "websites": [
            "dnr.state.il.us/lands/landmgt/parks/r5/gc.htm"
          ],
          "description": "1-4PM 618.457.4836 Sep-May: Tu-Su dnr.state.il.us/lands/landmgt/parks/r5/gc.htm 1-4PM Like the several other stone forts in southern 618.684.3455 Illinois, Giant City Stone Fort was constructed loganmuseum. during the Late Woodland period, 1,400 to 1,200 org years ago; interpretive signs can be found on one The museum is located in the Christo- of the hiking trails. pher C. Bullar house; archaeological collections from a decade of excava-",
          "notes": ""
        },
        {
          "number": 4,
          "name": "",
          "address": "",
          "city": "",
          "state": "",
          "zip": "",
          "phone": "618.658.2111",
          "hours": "",
          "websites": [],
          "description": "The Pounds Site tions from the original Logan home Rim Rock National Recreation Trail, 5 miles east of are on display at the museum. the Garden of the Gods on Karbers Ridge Blacktop. 618.658.2111 A 0.9-mile trail winding along the bottomland habitat southern Illinois The Rim Rock National Recreation Trail, a paved of Big Creek includes a partially reconstructed 19thinterpreted trail, includes signage for the Pounds century iron blast furnace. site, which contains the remains of one of eleven Late Woodland stone forts located in the Shawnee",
          "notes": ""
        },
        {
          "number": 5,
          "name": "",
          "address": "5 miles west of Cobden, IL thebescourthouse.com/",
          "city": "",
          "state": "",
          "zip": "",
          "phone": "618.764.2658",
          "hours": "",
          "websites": [
            "thebescourthouse.com/"
          ],
          "description": "Kaolin Pond 618.764.2658 This archaeological site, managed by the USDA For- The 1845 courthouse, an impressive stone building est Service, was the location of a mid 19th-century overlooking the Mississippi River, houses a limited kaolin clay mine and village. collection of prehistoric artifacts in the basement.",
          "notes": ""
        },
        {
          "number": 6,
          "name": "Union County Museum",
          "address": "",
          "city": "",
          "state": "",
          "zip": "",
          "phone": "",
          "hours": "",
          "websites": [],
          "description": "",
          "notes": ""
        },
        {
          "number": 7,
          "name": "Millstone Bluff area and platform, visiArchaeological Area tors can view some of",
          "address": "13 miles northeast of Vienna, IL the mounds preserved",
          "city": "",
          "state": "",
          "zip": "",
          "phone": "",
          "hours": "",
          "websites": [
            "fs.usda.gov/recarea/shawnee/recreation/hiking/"
          ],
          "description": "fs.usda.gov/recarea/shawnee/recreation/hiking/ at this Middle Missisrecarea/?recid=10689&actid=51 sippian period (A.D. Millstone Bluff, a unique 900-1500) fortified topographical feature village and mound rising 320 feet above the site, which once served as a link between settlements to surrounding terrain, is the southeast and the metropolis of Cahokia to the west. the site of an unplowed prehistoric Mississip-",
          "notes": ""
        },
        {
          "number": 8,
          "name": "",
          "address": "",
          "city": "",
          "state": "",
          "zip": "",
          "phone": "",
          "hours": "",
          "websites": [
            "theshawneenationalforest.com/home/recreation-",
            "museum.state.il.us/iaaa"
          ],
          "description": "Illinois Iron Furnace The Federal Customs House, listed on the National Elizabethtown area Register of Historic Places, is a three-story limestone theshawneenationalforest.com/home/recreation- building with collections that include prehistoric areas/iron-furnace-recreation-area Native American artifacts. museum.state.il.us/iaaa Southern Illinois 27",
          "notes": ""
        },
        {
          "number": 9,
          "name": "",
          "address": "",
          "city": "Thebes",
          "state": "IL",
          "zip": "62990",
          "phone": "",
          "hours": "",
          "websites": [],
          "description": "Thebes Court House Tours by appointment.",
          "notes": ""
        },
        {
          "number": 10,
          "name": "Fort Massac State Park",
          "address": "117 N. Appleknocker Dr., Cobden, IL 62920 1308 E. 5th St., Metropolis, IL 62960",
          "city": "",
          "state": "",
          "zip": "62920",
          "phone": "618.524.4712",
          "hours": "",
          "websites": [
            "dnr.state.il.us/lands/Landmgt/PARKS/R5/frmindex.htm",
            "seum.com"
          ],
          "description": "Sa-Su 1-5PM 618.524.4712 618.893.2865 dnr.state.il.us/lands/Landmgt/PARKS/R5/frmindex.htm unioncountyilmu- The visitor center at Fort Massac contains both seum.com ancient Native American artifacts and artifacts Exhibits include recovered from Fort Massac during 1939-42, 1966 American Indian and 1970 excavations. artifacts from private collections",
          "notes": ""
        },
        {
          "number": 11,
          "name": "Kincaid Mounds from sites in Near Avery Lake, southeast of Unionville",
          "address": "",
          "city": "",
          "state": "",
          "zip": "",
          "phone": "",
          "hours": "",
          "websites": [
            "illinois.gov/ihpa/Experience/Sites/Southeast/",
            "Kincaid-Mounds.aspx",
            "kincaidmounds.com"
          ],
          "description": "Union County and southern Illinois; in addition, illinois.gov/ihpa/Experience/Sites/Southeast/ there are 19th-century pottery vessels from the Pages/Kincaid-Mounds.aspx Kirkpatrick family and Anna Pottery. kincaidmounds.com From an interpretive",
          "notes": ""
        },
        {
          "number": 12,
          "name": "Customs House Museum",
          "address": "",
          "city": "Cairo",
          "state": "IL",
          "zip": "62914",
          "phone": "618.734.9632",
          "hours": "",
          "websites": [
            "greatriverroad.com/meetohio/customshouse.htm"
          ],
          "description": "cemetery, and rock art Tu-Fr 10AM-noon, 1-3PM site within the Shawnee National Forest. 618.734.9632",
          "notes": ""
        }
      ]
    }
  ]
}